[
  {"name": "Banda Aceh", "type": "kota", "province": "Aceh", "latitude": 5.5483, "longitude": 95.3238, "bps_code": "11", "is_featured": true},
  {"name": "Medan", "type": "kota", "province": "Sumatera Utara", "latitude": 3.5952, "longitude": 98.6722, "bps_code": "12", "is_featured": true},
  {"name": "Padang", "type": "kota", "province": "Sumatera Barat", "latitude": -0.9471, "longitude": 100.4172, "bps_code": "13", "is_featured": true},
  {"name": "Pekanbaru", "type": "kota", "province": "Riau", "latitude": 0.5071, "longitude": 101.4478, "bps_code": "14", "is_featured": true},
  {"name": "Jambi", "type": "kota", "province": "Jambi", "latitude": -1.6101, "longitude": 103.6131, "bps_code": "15", "is_featured": true},
  {"name": "Palembang", "type": "kota", "province": "Sumatera Selatan", "latitude": -2.9761, "longitude": 104.7754, "bps_code": "16", "is_featured": true},
  {"name": "Bengkulu", "type": "kota", "province": "Bengkulu", "latitude": -3.8004, "longitude": 102.2655, "bps_code": "17", "is_featured": true},
  {"name": "Bandar Lampung", "type": "kota", "province": "Lampung", "latitude": -5.3971, "longitude": 105.2668, "bps_code": "18", "is_featured": true},
  {"name": "Pangkal Pinang", "type": "kota", "province": "Kepulauan Bangka Belitung", "latitude": -2.1291, "longitude": 106.1130, "bps_code": "19", "is_featured": true},
  {"name": "Tanjung Pinang", "type": "kota", "province": "Kepulauan Riau", "latitude": 0.9186, "longitude": 104.4553, "bps_code": "21", "is_featured": true},
  {"name": "Jakarta", "type": "kota", "province": "DKI Jakarta", "latitude": -6.2088, "longitude": 106.8456, "bps_code": "31", "is_featured": true},
  {"name": "Bandung", "type": "kota", "province": "Jawa Barat", "latitude": -6.9175, "longitude": 107.6191, "bps_code": "32", "is_featured": true},
  {"name": "Semarang", "type": "kota", "province": "Jawa Tengah", "latitude": -6.9932, "longitude": 110.4203, "bps_code": "33", "is_featured": true},
  {"name": "Yogyakarta", "type": "kota", "province": "DI Yogyakarta", "latitude": -7.7956, "longitude": 110.3695, "bps_code": "34", "is_featured": true},
  {"name": "Surabaya", "type": "kota", "province": "Jawa Timur", "latitude": -7.2575, "longitude": 112.7521, "bps_code": "35", "is_featured": true},
  {"name": "Serang", "type": "kota", "province": "Banten", "latitude": -6.1200, "longitude": 106.1503, "bps_code": "36", "is_featured": true},
  {"name": "Denpasar", "type": "kota", "province": "Bali", "latitude": -8.6705, "longitude": 115.2126, "bps_code": "51", "is_featured": true},
  {"name": "Mataram", "type": "kota", "province": "Nusa Tenggara Barat", "latitude": -8.5833, "longitude": 116.1167, "bps_code": "52", "is_featured": true},
  {"name": "Kupang", "type": "kota", "province": "Nusa Tenggara Timur", "latitude": -10.1772, "longitude": 123.6070, "bps_code": "53", "is_featured": true},
  {"name": "Pontianak", "type": "kota", "province": "Kalimantan Barat", "latitude": -0.0263, "longitude": 109.3425, "bps_code": "61", "is_featured": true},
  {"name": "Palangka Raya", "type": "kota", "province": "Kalimantan Tengah", "latitude": -2.2080, "longitude": 113.9161, "bps_code": "62", "is_featured": true},
  {"name": "Banjarmasin", "type": "kota", "province": "Kalimantan Selatan", "latitude": -3.3186, "longitude": 114.5944, "bps_code": "63", "is_featured": true},
  {"name": "Samarinda", "type": "kota", "province": "Kalimantan Timur", "latitude": -0.5022, "longitude": 117.1536, "bps_code": "64", "is_featured": true},
  {"name": "Balikpapan", "type": "kota", "province": "Kalimantan Timur", "latitude": -1.2379, "longitude": 116.8529, "bps_code": "6471", "is_featured": true},
  {"name": "Tanjung Selor", "type": "kota", "province": "Kalimantan Utara", "latitude": 2.8375, "longitude": 117.3661, "bps_code": "65", "is_featured": true},
  {"name": "Manado", "type": "kota", "province": "Sulawesi Utara", "latitude": 1.4748, "longitude": 124.8421, "bps_code": "71", "is_featured": true},
  {"name": "Palu", "type": "kota", "province": "Sulawesi Tengah", "latitude": -0.8917, "longitude": 119.8707, "bps_code": "72", "is_featured": true},
  {"name": "Makassar", "type": "kota", "province": "Sulawesi Selatan", "latitude": -5.1477, "longitude": 119.4327, "bps_code": "73", "is_featured": true},
  {"name": "Kendari", "type": "kota", "province": "Sulawesi Tenggara", "latitude": -3.9985, "longitude": 122.5127, "bps_code": "74", "is_featured": true},
  {"name": "Gorontalo", "type": "kota", "province": "Gorontalo", "latitude": 0.5435, "longitude": 123.0568, "bps_code": "75", "is_featured": true},
  {"name": "Mamuju", "type": "kota", "province": "Sulawesi Barat", "latitude": -2.6748, "longitude": 118.8885, "bps_code": "76", "is_featured": true},
  {"name": "Ambon", "type": "kota", "province": "Maluku", "latitude": -3.6954, "longitude": 128.1814, "bps_code": "81", "is_featured": true},
  {"name": "Sofifi", "type": "kota", "province": "Maluku Utara", "latitude": 0.7333, "longitude": 127.5667, "bps_code": "82", "is_featured": true},
  {"name": "Manokwari", "type": "kota", "province": "Papua Barat", "latitude": -0.8615, "longitude": 134.0620, "bps_code": "91", "is_featured": true},
  {"name": "Jayapura", "type": "kota", "province": "Papua", "latitude": -2.5916, "longitude": 140.6690, "bps_code": "94", "is_featured": true},
  {"name": "Bekasi", "type": "kota", "province": "Jawa Barat", "latitude": -6.2383, "longitude": 106.9756, "bps_code": "3275", "is_featured": false},
  {"name": "Tangerang", "type": "kota", "province": "Banten", "latitude": -6.1783, "longitude": 106.6319, "bps_code": "3671", "is_featured": false},
  {"name": "Depok", "type": "kota", "province": "Jawa Barat", "latitude": -6.4025, "longitude": 106.7942, "bps_code": "3276", "is_featured": false},
  {"name": "Bogor", "type": "kota", "province": "Jawa Barat", "latitude": -6.5971, "longitude": 106.8060, "bps_code": "3271", "is_featured": false},
  {"name": "Malang", "type": "kota", "province": "Jawa Timur", "latitude": -7.9666, "longitude": 112.6326, "bps_code": "3573", "is_featured": false},
  {"name": "Batam", "type": "kota", "province": "Kepulauan Riau", "latitude": 1.0456, "longitude": 104.0305, "bps_code": "2171", "is_featured": false},
  {"name": "Cirebon", "type": "kota", "province": "Jawa Barat", "latitude": -6.7063, "longitude": 108.5571, "bps_code": "3274", "is_featured": false},
  {"name": "Surakarta", "type": "kota", "province": "Jawa Tengah", "latitude": -7.5755, "longitude": 110.8243, "bps_code": "3372", "is_featured": false},
  {"name": "Sukabumi", "type": "kota", "province": "Jawa Barat", "latitude": -6.9277, "longitude": 106.9300, "bps_code": "3272", "is_featured": false},
  {"name": "Tasikmalaya", "type": "kota", "province": "Jawa Barat", "latitude": -7.3506, "longitude": 108.2172, "bps_code": "3278", "is_featured": false},
  {"name": "Ternate", "type": "kota", "province": "Maluku Utara", "latitude": 0.7833, "longitude": 127.3667, "bps_code": "8271", "is_featured": false},
  {"name": "Kediri", "type": "kota", "province": "Jawa Timur", "latitude": -7.8480, "longitude": 112.0178, "bps_code": "3571", "is_featured": false},
  {"name": "Madiun", "type": "kota", "province": "Jawa Timur", "latitude": -7.6298, "longitude": 111.5239, "bps_code": "3577", "is_featured": false},
  {"name": "Magelang", "type": "kota", "province": "Jawa Tengah", "latitude": -7.4797, "longitude": 110.2177, "bps_code": "3371", "is_featured": false},
  {"name": "Salatiga", "type": "kota", "province": "Jawa Tengah", "latitude": -7.3305, "longitude": 110.5084, "bps_code": "3373", "is_featured": false},
  {"name": "Tegal", "type": "kota", "province": "Jawa Tengah", "latitude": -6.8694, "longitude": 109.1402, "bps_code": "3376", "is_featured": false},
  {"name": "Pekalongan", "type": "kota", "province": "Jawa Tengah", "latitude": -6.8898, "longitude": 109.6753, "bps_code": "3375", "is_featured": false},
  {"name": "Cimahi", "type": "kota", "province": "Jawa Barat", "latitude": -6.8721, "longitude": 107.5425, "bps_code": "3277", "is_featured": false},
  {"name": "Banjarbaru", "type": "kota", "province": "Kalimantan Selatan", "latitude": -3.4531, "longitude": 114.8327, "bps_code": "6372", "is_featured": false},
  {"name": "Bitung", "type": "kota", "province": "Sulawesi Utara", "latitude": 1.4451, "longitude": 125.1809, "bps_code": "7172", "is_featured": false},
  {"name": "Bukittinggi", "type": "kota", "province": "Sumatera Barat", "latitude": -0.3056, "longitude": 100.3692, "bps_code": "1375", "is_featured": false},
  {"name": "Binjai", "type": "kota", "province": "Sumatera Utara", "latitude": 3.6001, "longitude": 98.4854, "bps_code": "1274", "is_featured": false},
  {"name": "Bau-Bau", "type": "kota", "province": "Sulawesi Tenggara", "latitude": -5.4700, "longitude": 122.6200, "bps_code": "7472", "is_featured": false},
  {"name": "Palopo", "type": "kota", "province": "Sulawesi Selatan", "latitude": -2.9925, "longitude": 120.1957, "bps_code": "7373", "is_featured": false},
  {"name": "Bontang", "type": "kota", "province": "Kalimantan Timur", "latitude": 0.1324, "longitude": 117.4855, "bps_code": "6474", "is_featured": false},
  {"name": "Singkawang", "type": "kota", "province": "Kalimantan Barat", "latitude": 0.9068, "longitude": 108.9856, "bps_code": "6172", "is_featured": false},
  {"name": "Sorong", "type": "kota", "province": "Papua Barat Daya", "latitude": -0.8762, "longitude": 131.2558, "bps_code": "9271", "is_featured": false},
  {"name": "Tangerang Selatan", "type": "kota", "province": "Banten", "latitude": -6.2884, "longitude": 106.7180, "bps_code": "3674", "is_featured": false},
  {"name": "Probolinggo", "type": "kota", "province": "Jawa Timur", "latitude": -7.7543, "longitude": 113.2159, "bps_code": "3574", "is_featured": false},
  {"name": "Metro", "type": "kota", "province": "Lampung", "latitude": -5.1131, "longitude": 105.3067, "bps_code": "1872", "is_featured": false}
]
